Store No,Store Name,Address,formatted_address_google,location_lat,location_lng,Coordinate
192,FamilyMart Caltex Taman Impian Emas," Part of PTD 107072, Jalan Seri Impian 1, Taman Impian Emas, 81300 Skudai, Johor.","PTD 107072, Jalan Seri Impian 1, Taman Impian Emas, 81300 Skudai, Johor, Malaysia",1.545594,103.6830348,"1.545594, 103.6830348"
193,FamilyMart R&R Skudai,"Lot 1A, 7A Jalan R&R Skudai, Kawasan R&R Skudai, 81400 Senai, Johor.","Lot 1A, 7A Jalan R&R Skudai, Kawasan R&R Skudai, 81400 Senai, Johor, Malaysia",1.5916709,103.6355533,"1.5916709, 103.6355533"
194,FamilyMart Petron Kota Masai,"Lot PTD 213415 ,Taman Kota Masai, Plentong, 81700 Johor Bahru, Johor.","Jalan Jambu Utama, Taman Pasir Putih, 81700 Pasir Gudang, Johor, Malaysia",1.4874688,103.9503708,"1.4874688, 103.9503708"
195,FamilyMart Taman Setia Indah,"No.2, Jalan Setia 3/2, Taman Setia Indah 81100 Johor Bahru, Johor.","No.2, Jalan Setia 3/2, Taman Setia Indah, 81100 Johor Bahru, Johor, Malaysia",1.5721719,103.7568385,"1.5721719, 103.7568385"
196,FamilyMart Paradigm JB,"Lot GF-18,19,20,21&22, Ground Floor, Paradigm Mall, Johor Bahru, Johor. ","Lot GF-18,19,20,21&22, Ground Floor, Paradigm Mall, Taman Bukit Mewah, 81200 Johor Bahru, Johor, Malaysia",1.5155291,103.6855381,"1.5155291, 103.6855381"
197,FamilyMart Jalan Serampang,"No.21, Jalan Serampang, Taman Sri Tebrau, 80050 Johor Bahru.","No.21, Jalan Serampang, Taman Sri Tebrau, 80050 Johor Bahru, Johor, Malaysia",1.4843487,103.7675681,"1.4843487, 103.7675681"
198,FamilyMart Caltex Taman Banting Baru,"Lot 2352, Jalan Sultan Abdul Samad, Taman Banting Baru, 42700 Banting, Kuala Langat, Selangor. ","Lot 2352, Jalan Sultan Abdul Samad, Taman Banting Baru, 42700 Banting, Selangor, Malaysia",2.8185941,101.4549183,"2.8185941, 101.4549183"
200,"FamilyMart Old Street, Batu Pahat","Old Street Commercial Centre, No. 22 (Ground Floor), Jalan Rotan Utama, Taman Sri Jaya, 83000 Batu Pahat, Johor.","No.22 (Ground Floor, Jalan Rotan Utama, Taman Sri Jaya, 83000 Batu Pahat, Johor, Malaysia",1.8634265,102.954351,"1.8634265, 102.954351"
201,FamilyMart Teluk Pulai,"No. 39, Ground Floor, Jalan Teluk Pulai, 41100 Klang, Selangor. ","No. 39, Ground Floor, Jalan Teluk Pulai, Taman Teluk Pulai, 41100 Klang, Selangor, Malaysia",3.0424397,101.4279318,"3.0424397, 101.4279318"
202,FamilyMart Bandar Seri Putra,"No.12, Ground Floor, Jalan Seri Putra 1/4, Bandar Seri Putra, 43000 Bangi, Selangor.","12, Ground Floor, Jalan Seri Putra 1/4, Bandar Seri Putra, 43000 Bangi, Selangor, Malaysia",2.8854134,101.7905862,"2.8854134, 101.7905862"
203,FamilyMart Petron Rasah Kemayan,"PT9770, Persiaran Rasah Kemayan 1, Seremban 2, 70300 Seremban, Negeri Sembilan","PT9770, Persiaran Rasah Kemayan 1, Seremban 2, 70300 Seremban, Negeri Sembilan, Malaysia",2.6912108,101.893878,"2.6912108, 101.893878"
204,FamilyMart Port Dickson,"No. 7, Ground Floor, Jalan Pusat Perniagaan Impian 1, Pusat Perniagaan Impian, 71009 Port Dickson, Negeri Sembilan.","No. 7, Ground Floor, Jalan Pusat Perniagaan Impian 1 Pusat Perniagaan Impian, Taman Mewah, 71009 Port Dickson, Negeri Sembilan, Malaysia",2.5259144,101.8085815,"2.5259144, 101.8085815"
205,FamilyMart Caltex Raja Uda,"Part of Lot 2219, Section 1, Jalan Raja Uda, Taman Tanjung Aman, 12300 Butterworth, Pulau Pinang.","Lot 2219, Section, 1, Jalan Raja Uda, Taman Tanjung Aman, 12300 Butterworth, Pulau Pinang, Malaysia",5.4300213,100.3844934,"5.4300213, 100.3844934"
206,FamilyMart Jenjarom,"No. 2, Jalan 2/2, Taman Seri Jaromas, 42600 Jenjarom, Selangor.","No. 2, Jalan 2/21, Taman Seri Jaromas, 42600 Jenjarom, Selangor, Malaysia",2.8742073,101.5012496,"2.8742073, 101.5012496"
207,FamilyMart Kota Emas,"No. 50-G, Jalan Emas 2, Pusat Perniagaan Kota Emas, 82000 Pontian, Johor.","50-G, Jalan Emas 2, Pusat Perniagaan Kota Emas, 82000 Pontian, Johor, Malaysia",1.4798741,103.3995819,"1.4798741, 103.3995819"
208,FamilyMart Gravitas,"B2-G-1, Elevate Gravitas, Jalan Baru, 13700 Bukit Mertajam, Pulau Pinang.","B2-G-1, Elevate Gravitas, Jln Baru, 13700 Bukit Mertajam, Pulau Pinang, Malaysia",5.3693739,100.4169656,"5.3693739, 100.4169656"
209,FamilyMart Bercham,"No. 55, Jalan Bercham, Medan Bercham Selatan, 31400 Ipoh, Perak.","55, Medan Bercham Selatan 1, Taman Sri Kurau, 31400 Ipoh, Perak, Malaysia",4.6251595,101.1212606,"4.6251595, 101.1212606"
210,FamilyMart Parit Raja,"No 22, Jalan Universiti 1, Taman Universiti Parit Raja, Batu Pahat","No 22, Jalan Universiti 1, Taman Universiti, 86400 Parit Raja, Johor, Malaysia",1.848631,103.0741501,"1.848631, 103.0741501"
211,FamilyMart Auto City,"Juru Interchange, Auto-City, No. 1824-G1 & 1823-G3, Jalan Perusahaan, 14000, Prai, 14000,Penang.","Juru Interchange, Auto-City, No. 1824-G1 & 1823, G3, Jalan Perusahaan, Bukit Tengah, 13600 Perai, Pulau Pinang, Malaysia",5.3376029,100.4290466,"5.3376029, 100.4290466"
212,FamilyMart Karpal Singh Drive,"No.29C-01-19 & No. 29C-01-20, Maritime, Persiaran Karpal Singh, 11600 Jelutong, Penang.","No.29C-01-19 & No. 29C-01-20, Maritime, Karpal Singh Dr, 11600 Jelutong, Pulau Pinang, Malaysia",5.3988143,100.3293515,"5.3988143, 100.3293515"
213,"FamilyMart Pusat Perniagaan Haji Manan, Kluang","108, Jalan Haji Manan, Kampung Masjid Lama, 86000 Kluang, Johor.","108, Jln Haji Manan, Kampung Masjid Lama, 86000 Kluang, Johor, Malaysia",2.0352382,103.3192596,"2.0352382, 103.3192596"
214,"FamilyMart Pekan Sentral, Pekan Nanas","No 111, Jalan Industri 8, Taman Perindustrian Pekan Nenas, 81500 Pontian, Johor.","111, Jalan Industri 8, Taman Perindustrian Pekan Nenas, 81500 Pekan Nanas, Johor, Malaysia",1.4957436,103.5253848,"1.4957436, 103.5253848"
215,FamilyMart Kota Tinggi,"No. 9, Jalan Niaga Utama, 81900 Kota Tinggi, Johor, 81900","9, Jalan Niaga Utama, Pusat Perdagangan Kota Tinggi, 81900 Kota Tinggi, Johor, Malaysia",1.729487,103.9004068,"1.729487, 103.9004068"
216,FamilyMart Jalan Burma,"No.306-F, Jalan Burma, 10350 Penang.","No.306-F, 306-H, Jalan Burma, Pulau Tikus, 10350 George Town, Pulau Pinang, Malaysia",5.4323879,100.3109549,"5.4323879, 100.3109549"
217,FamilyMart Caltex Setiawangsa,"12914, Jalan 37/56, Taman Setiawangsa, 54200 Kuala Lumpur, Selangor","12914, Jalan 37/56, Taman Setiawangsa, 54200 Wilayah Persekutuan, Wilayah Persekutuan Kuala Lumpur, Malaysia",3.1776301,101.7375995,"3.1776301, 101.7375995"
218,FamilyMart Jalan Pesta,"2 Jalan Pesta 1, Pusat Perdagangan Mega, Jalan Sakeh,84000 Muar.","2, Jalan Pesta 1, Jln Sakeh, Pusat Perdagangan Mega, 84000 Muar, Johor, Malaysia",2.0507928,102.5833442,"2.0507928, 102.5833442"
219,FamilyMart Petron Hulu Langat,"2, Jalan Hulu Langat Jaya 1, Taman Hulu Langat Jaya, 43200 Cheras, Selangor.","2, Jalan Hulu Langat Jaya 1, Taman Hulu Langat Jaya, 43200 Cheras, Selangor, Malaysia",3.0702663,101.7811153,"3.0702663, 101.7811153"
220,FamilyMart Caltex Taman Perling,"PTD 30504, Jalan Layang, Taman Perling, 81200 Johor Bahru.","PTD 30504, Jalan Layang, Taman Perling, 81200 Johor Bahru, Johor, Malaysia",1.4760497,103.6792995,"1.4760497, 103.6792995"
221,FamilyMart Caltex Sg. Dua,"Caltex Sg Dua North Bound, PMT 10359, KM 132.5, Lebuhraya Utara Selatan, 13600 Permatang Pauh, Pulau Pinang.","Caltex Sg Dua North Bound, PMT 10359, KM 132, 5, Lebuhraya Utara - Selatan, 13600 Permatang Pauh, Pulau Pinang, Malaysia",5.4232678,100.4126129,"5.4232678, 100.4126129"
222,FamilyMart Bandar Damai Perdana,"No. 18, Jalan Damai Perdana 1/9a, Bandar Damai Perdana, 43200 Cheras, Selangor","No. 18, Jalan Damai Perdana 1/9a, Bandar Damai Perdana, 43200 Cheras, Selangor, Malaysia",3.045922,101.7393,"3.045922, 101.7393"
