Store No,Store Name,Address,formatted_address_google,location_lat,location_lng,Coordinate
413,FamilyMart Rembau,"No. 9-G (Ground Floor), Jalan RS 1, Rembau Sentral, 71309 Pekan Rembau, Negeri Sembilan.","No. 9-G (Ground Floor, Jalan RS 1, Rembau Sentral, 71309 Pekan, Negeri Sembilan, Malaysia",2.5885288,102.0988065,"2.5885288, 102.0988065"
414,FamilyMart Caltex Kuantan Bypass,"Kampung Batu Tujuh, 25150 Kuantan, Pahang.","Kampung Batu Tujuh, 25150 Kuantan, Pahang, Malaysia",3.7934177,103.2483684,"3.7934177, 103.2483684"
416,FamilyMart Sendayan,"No. 21, Ground Floor Persiaran Metro Park, Bandar Sri Sendayan, 71950, N9","No 21, Ground Floor, Persiaran Metro Park, Bandar Sri Sendayan, 71950 Seremban, Negeri Sembilan, Malaysia",2.6876583,101.848211,"2.6876583, 101.848211"
420,FamilyMart Radia,"G-23(i), Komersial Radia, Persiaran Tebar Layar, Bukit Jelutong, 40150 Shah Alam, Selangor","G-23, Radia Commercial, Persiaran Arked, Bukit Jelutong, 40150 Shah Alam, Selangor, Malaysia",3.1015497,101.5355576,"3.1015497, 101.5355576"
9999,FamilyMart Subang SS15,"No.20, Jalan SS15/8, 47500 Subang Jaya, Selangor","20, Jalan SS 15/8, Ss 15, 47500 Subang Jaya, Selangor, Malaysia",3.0753576,101.5905182,"3.0753576, 101.5905182"
